{"businesses": [{"id": "YeOYJzARrDlJUVTn6QbQPg", "alias": "exxon-carrboro", "name": "Exxon", "image_url": "https://s3-media1.fl.yelpcdn.com/bphoto/QuPSQyh1butrn3gJRkdrhA/o.jpg", "is_closed": false, "url": "https://www.yelp.com/biz/exxon-carrboro?adjust_creative=oqRgleuq4a8yss5LEoEVJg&utm_campaign=yelp_api_v3&utm_medium=api_v3_business_search&utm_source=oqRgleuq4a8yss5LEoEVJg", "review_count": 3, "categories": [{"alias": "servicestations", "title": "Gas Stations"}], "rating": 2.5, "coordinates": {"latitude": 35.910881, "longitude": -79.0764923}, "transactions": [], "location": {"address1": "207 W Main St", "address2": "", "address3": "", "city": "Carrboro", "zip_code": "27510", "country": "US", "state": "NC", "display_address": ["207 W Main St", "Carrboro, NC 27510"]}, "phone": "+19199676910", "display_phone": "(919) 967-6910", "distance": 1037.3103872351685}, {"id": "lpWwRsyll9WtSPVITGxxoA", "alias": "bp-chapel-hill", "name": "BP", "image_url": "https://s3-media1.fl.yelpcdn.com/bphoto/0imGfo_YONXKIMp-1o6zeA/o.jpg", "is_closed": false, "url": "https://www.yelp.com/biz/bp-chapel-hill?adjust_creative=oqRgleuq4a8yss5LEoEVJg&utm_campaign=yelp_api_v3&utm_medium=api_v3_business_search&utm_source=oqRgleuq4a8yss5LEoEVJg", "review_count": 4, "categories": [{"alias": "convenience", "title": "Convenience Stores"}, {"alias": "servicestations", "title": "Gas Stations"}], "rating": 4.5, "coordinates": {"latitude": 35.9454384, "longitude": -79.0586395}, "transactions": [], "price": "$$", "location": {"address1": "1201 Martin Luther King Jr Blvd", "address2": "", "address3": "", "city": "Chapel Hill", "zip_code": "27514", "country": "US", "state": "NC", "display_address": ["1201 Martin Luther King Jr Blvd", "Chapel Hill, NC 27514"]}, "phone": "+19199321500", "display_phone": "(919) 932-1500", "distance": 3681.7734616422513}, {"id": "Bn-d3idt6__09TbipajBAA", "alias": "circle-k-carrboro-2", "name": "Circle K", "image_url": "https://s3-media3.fl.yelpcdn.com/bphoto/_ZJ-d00fFzFTK7JjEdi9cQ/o.jpg", "is_closed": false, "url": "https://www.yelp.com/biz/circle-k-carrboro-2?adjust_creative=oqRgleuq4a8yss5LEoEVJg&utm_campaign=yelp_api_v3&utm_medium=api_v3_business_search&utm_source=oqRgleuq4a8yss5LEoEVJg", "review_count": 1, "categories": [{"alias": "convenience", "title": "Convenience Stores"}, {"alias": "servicestations", "title": "Gas Stations"}], "rating": 1.0, "coordinates": {"latitude": 35.9172552, "longitude": -79.0940948}, "transactions": [], "location": {"address1": "102 Nc 54 B", "address2": null, "address3": "", "city": "Carrboro", "zip_code": "27510", "country": "US", "state": "NC", "display_address": ["102 Nc 54 B", "Carrboro, NC 27510"]}, "phone": "+19199330482", "display_phone": "(919) 933-0482", "distance": 1167.1898783961715}, {"id": "ezBRTNRQNqnf5iK0JbsPeA", "alias": "carrboro-mini-mart-carrboro", "name": "Carrboro Mini Mart", "image_url": "https://s3-media1.fl.yelpcdn.com/bphoto/HILChiOJYixwZ4p32_8xCg/o.jpg", "is_closed": false, "url": "https://www.yelp.com/biz/carrboro-mini-mart-carrboro?adjust_creative=oqRgleuq4a8yss5LEoEVJg&utm_campaign=yelp_api_v3&utm_medium=api_v3_business_search&utm_source=oqRgleuq4a8yss5LEoEVJg", "review_count": 2, "categories": [{"alias": "convenience", "title": "Convenience Stores"}, {"alias": "servicestations", "title": "Gas Stations"}], "rating": 2.0, "coordinates": {"latitude": 35.91292, "longitude": -79.07819}, "transactions": [], "price": "$$", "location": {"address1": "502 W Main St", "address2": "", "address3": "", "city": "Carrboro", "zip_code": "27510", "country": "US", "state": "NC", "display_address": ["502 W Main St", "Carrboro, NC 27510"]}, "phone": "+19199421620", "display_phone": "(919) 942-1620", "distance": 739.2475070576553}, {"id": "Z-w6qmzwj8qYnsgPELVpow", "alias": "circle-k-carrboro", "name": "Circle K", "image_url": "https://s3-media2.fl.yelpcdn.com/bphoto/mHXpOKtbspdtl5-DX5Wyfw/o.jpg", "is_closed": false, "url": "https://www.yelp.com/biz/circle-k-carrboro?adjust_creative=oqRgleuq4a8yss5LEoEVJg&utm_campaign=yelp_api_v3&utm_medium=api_v3_business_search&utm_source=oqRgleuq4a8yss5LEoEVJg", "review_count": 1, "categories": [{"alias": "convenience", "title": "Convenience Stores"}, {"alias": "servicestations", "title": "Gas Stations"}], "rating": 2.0, "coordinates": {"latitude": 35.90661, "longitude": -79.08337}, "transactions": [], "location": {"address1": "501 Jones Ferry Rd", "address2": null, "address3": "", "city": "Carrboro", "zip_code": "27510", "country": "US", "state": "NC", "display_address": ["501 Jones Ferry Rd", "Carrboro, NC 27510"]}, "phone": "+19199423450", "display_phone": "(919) 942-3450", "distance": 1349.8103066105903}, {"id": "IJYqC3d5jBlwnlkzv93NNw", "alias": "exxon-chapel-hill", "name": "Exxon", "image_url": "https://s3-media3.fl.yelpcdn.com/bphoto/udvJQCev8pTuYJ1l8QqdTg/o.jpg", "is_closed": false, "url": "https://www.yelp.com/biz/exxon-chapel-hill?adjust_creative=oqRgleuq4a8yss5LEoEVJg&utm_campaign=yelp_api_v3&utm_medium=api_v3_business_search&utm_source=oqRgleuq4a8yss5LEoEVJg", "review_count": 3, "categories": [{"alias": "convenience", "title": "Convenience Stores"}, {"alias": "servicestations", "title": "Gas Stations"}], "rating": 4.5, "coordinates": {"latitude": 35.9696617126465, "longitude": -79.0617065429688}, "transactions": [], "price": "$$", "location": {"address1": "1860 Airport Rd", "address2": "", "address3": "", "city": "Chapel Hill", "zip_code": "27514", "country": "US", "state": "NC", "display_address": ["1860 Airport Rd", "Chapel Hill, NC 27514"]}, "phone": "+19199672000", "display_phone": "(919) 967-2000", "distance": 5876.765177635071}, {"id": "USmDeMTidKEBDaWAo_LHmQ", "alias": "calvander-food-mart-chapel-hill", "name": "Calvander Food Mart", "image_url": "https://s3-media2.fl.yelpcdn.com/bphoto/qn9Wu_fKlgV6tjSL1EB_UQ/o.jpg", "is_closed": false, "url": "https://www.yelp.com/biz/calvander-food-mart-chapel-hill?adjust_creative=oqRgleuq4a8yss5LEoEVJg&utm_campaign=yelp_api_v3&utm_medium=api_v3_business_search&utm_source=oqRgleuq4a8yss5LEoEVJg", "review_count": 6, "categories": [{"alias": "convenience", "title": "Convenience Stores"}], "rating": 3.5, "coordinates": {"latitude": 35.9426003, "longitude": -79.1101685}, "transactions": [], "price": "$", "location": {"address1": "108 Dairyland Rd", "address2": null, "address3": null, "city": "Chapel Hill", "zip_code": "27516", "country": "US", "state": "NC", "display_address": ["108 Dairyland Rd", "Chapel Hill, NC 27516"]}, "phone": "+19199428225", "display_phone": "(919) 942-8225", "distance": 3668.0888285559495}, {"id": "kDxFaOeFrbblJT3uxbGywQ", "alias": "handee-hugo-70-carrboro", "name": "Handee Hugo 70", "image_url": "https://s3-media2.fl.yelpcdn.com/bphoto/nG3NXTiryM_fz1otVEbfcQ/o.jpg", "is_closed": false, "url": "https://www.yelp.com/biz/handee-hugo-70-carrboro?adjust_creative=oqRgleuq4a8yss5LEoEVJg&utm_campaign=yelp_api_v3&utm_medium=api_v3_business_search&utm_source=oqRgleuq4a8yss5LEoEVJg", "review_count": 3, "categories": [{"alias": "convenience", "title": "Convenience Stores"}], "rating": 2.5, "coordinates": {"latitude": 35.9169388, "longitude": -79.0930481}, "transactions": [], "price": "$", "location": {"address1": "1401 W Main St", "address2": null, "address3": null, "city": "Carrboro", "zip_code": "27510", "country": "US", "state": "NC", "display_address": ["1401 W Main St", "Carrboro, NC 27510"]}, "phone": "+19199299887", "display_phone": "(919) 929-9887", "distance": 993.5184798536645}, {"id": "nqL-fY78yhTbNAFXq5vP3g", "alias": "short-stop-citgo-carrboro", "name": "Short Stop Citgo", "image_url": "https://s3-media1.fl.yelpcdn.com/bphoto/iM65KSonFu0l1JobjPa2zw/o.jpg", "is_closed": false, "url": "https://www.yelp.com/biz/short-stop-citgo-carrboro?adjust_creative=oqRgleuq4a8yss5LEoEVJg&utm_campaign=yelp_api_v3&utm_medium=api_v3_business_search&utm_source=oqRgleuq4a8yss5LEoEVJg", "review_count": 2, "categories": [{"alias": "servicestations", "title": "Gas Stations"}, {"alias": "convenience", "title": "Convenience Stores"}], "rating": 2.0, "coordinates": {"latitude": 35.91162238372, "longitude": -79.0767201449985}, "transactions": [], "price": "$", "location": {"address1": "300 W Main St", "address2": "", "address3": "", "city": "Carrboro", "zip_code": "27510", "country": "US", "state": "NC", "display_address": ["300 W Main St", "Carrboro, NC 27510"]}, "phone": "+19199295272", "display_phone": "(919) 929-5272", "distance": 918.4409380556135}, {"id": "Jd9_UM-WFs1dW3Nnbj1LRA", "alias": "taqueria-el-bajio-carrboro-2", "name": "Taqueria El Bajio", "image_url": "https://s3-media3.fl.yelpcdn.com/bphoto/gMm5CsRMflctuRh5YrWZQQ/o.jpg", "is_closed": false, "url": "https://www.yelp.com/biz/taqueria-el-bajio-carrboro-2?adjust_creative=oqRgleuq4a8yss5LEoEVJg&utm_campaign=yelp_api_v3&utm_medium=api_v3_business_search&utm_source=oqRgleuq4a8yss5LEoEVJg", "review_count": 7, "categories": [{"alias": "mexican", "title": "Mexican"}, {"alias": "meats", "title": "Meat Shops"}, {"alias": "convenience", "title": "Convenience Stores"}], "rating": 4.0, "coordinates": {"latitude": 35.9064868, "longitude": -79.0846137}, "transactions": ["delivery"], "price": "$", "location": {"address1": "508 Jones Ferry Rd", "address2": "", "address3": "", "city": "Carrboro", "zip_code": "27510", "country": "US", "state": "NC", "display_address": ["508 Jones Ferry Rd", "Carrboro, NC 27510"]}, "phone": "+19199671556", "display_phone": "(919) 967-1556", "distance": 1271.8261511967569}, {"id": "7teAb9Q3HWBFKU2H5sLq2Q", "alias": "run-in-jims-chapel-hill-2", "name": "Run In Jim's", "image_url": "https://s3-media1.fl.yelpcdn.com/bphoto/ZTAJIM3qgL3W_dHTVuh1Lg/o.jpg", "is_closed": false, "url": "https://www.yelp.com/biz/run-in-jims-chapel-hill-2?adjust_creative=oqRgleuq4a8yss5LEoEVJg&utm_campaign=yelp_api_v3&utm_medium=api_v3_business_search&utm_source=oqRgleuq4a8yss5LEoEVJg", "review_count": 4, "categories": [{"alias": "convenience", "title": "Convenience Stores"}, {"alias": "servicestations", "title": "Gas Stations"}], "rating": 3.0, "coordinates": {"latitude": 35.9253273010254, "longitude": -79.0535354614258}, "transactions": [], "location": {"address1": "800 Martin Luther King Jr Blvd", "address2": null, "address3": null, "city": "Chapel Hill", "zip_code": "27514", "country": "US", "state": "NC", "display_address": ["800 Martin Luther King Jr Blvd", "Chapel Hill, NC 27514"]}, "phone": "+19199696666", "display_phone": "(919) 969-6666", "distance": 2700.5879699624343}, {"id": "Hc6Wp3ZlfZwslP4OWtj9zA", "alias": "speedway-chapel-hill", "name": "Speedway", "image_url": "", "is_closed": false, "url": "https://www.yelp.com/biz/speedway-chapel-hill?adjust_creative=oqRgleuq4a8yss5LEoEVJg&utm_campaign=yelp_api_v3&utm_medium=api_v3_business_search&utm_source=oqRgleuq4a8yss5LEoEVJg", "review_count": 1, "categories": [{"alias": "servicestations", "title": "Gas Stations"}, {"alias": "convenience", "title": "Convenience Stores"}], "rating": 5.0, "coordinates": {"latitude": 35.94761, "longitude": -79.05919}, "transactions": [], "location": {"address1": "1213 Martin L King Jr Blvd", "address2": "", "address3": null, "city": "Chapel Hill", "zip_code": "27514", "country": "US", "state": "NC", "display_address": ["1213 Martin L King Jr Blvd", "Chapel Hill, NC 27514"]}, "phone": "+18006431948", "display_phone": "(800) 643-1948", "distance": 3847.7826362297833}, {"id": "7dsfcocDLBaNUmXz1EGipA", "alias": "carrboro-plumbing-inc-carrboro", "name": "Carrboro Plumbing, Inc.", "image_url": "https://s3-media4.fl.yelpcdn.com/bphoto/03Pv3aiKQKyvLANWjKbnpg/o.jpg", "is_closed": false, "url": "https://www.yelp.com/biz/carrboro-plumbing-inc-carrboro?adjust_creative=oqRgleuq4a8yss5LEoEVJg&utm_campaign=yelp_api_v3&utm_medium=api_v3_business_search&utm_source=oqRgleuq4a8yss5LEoEVJg", "review_count": 12, "categories": [{"alias": "plumbing", "title": "Plumbing"}], "rating": 5.0, "coordinates": {"latitude": 35.907486, "longitude": -79.083916}, "transactions": [], "location": {"address1": "806 Davie Rd", "address2": null, "address3": "", "city": "Carrboro", "zip_code": "27510", "country": "US", "state": "NC", "display_address": ["806 Davie Rd", "Carrboro, NC 27510"]}, "phone": "+19192654026", "display_phone": "(919) 265-4026", "distance": 1234.583905150705}, {"id": "1zJYrpgf8M_ud0LIJUrdKg", "alias": "mintons-glenn-lennox-bp-chapel-hill", "name": "Minton's Glenn Lennox Bp", "image_url": "https://s3-media4.fl.yelpcdn.com/bphoto/9tuNJzeXQUvC-gyWqyWSIA/o.jpg", "is_closed": false, "url": "https://www.yelp.com/biz/mintons-glenn-lennox-bp-chapel-hill?adjust_creative=oqRgleuq4a8yss5LEoEVJg&utm_campaign=yelp_api_v3&utm_medium=api_v3_business_search&utm_source=oqRgleuq4a8yss5LEoEVJg", "review_count": 3, "categories": [{"alias": "servicestations", "title": "Gas Stations"}], "rating": 4.5, "coordinates": {"latitude": 35.90863, "longitude": -79.02584}, "transactions": [], "location": {"address1": "1201 Raleigh Rd", "address2": "Ste A", "address3": "", "city": "Chapel Hill", "zip_code": "27517", "country": "US", "state": "NC", "display_address": ["1201 Raleigh Rd", "Ste A", "Chapel Hill, NC 27517"]}, "phone": "+19199339010", "display_phone": "(919) 933-9010", "distance": 5174.208302373933}, {"id": "HoJUe7WyXkGIfb2_E6gqgg", "alias": "wilcohess-chapel-hill", "name": "WilcoHess", "image_url": "https://s3-media4.fl.yelpcdn.com/bphoto/xxwsdyF-whSR5e9Lm8aNSA/o.jpg", "is_closed": false, "url": "https://www.yelp.com/biz/wilcohess-chapel-hill?adjust_creative=oqRgleuq4a8yss5LEoEVJg&utm_campaign=yelp_api_v3&utm_medium=api_v3_business_search&utm_source=oqRgleuq4a8yss5LEoEVJg", "review_count": 5, "categories": [{"alias": "servicestations", "title": "Gas Stations"}], "rating": 3.0, "coordinates": {"latitude": 35.9476089477539, "longitude": -79.059196472168}, "transactions": [], "location": {"address1": "1213 Martin Luther King Jr Blvd", "address2": "", "address3": "", "city": "Chapel Hill", "zip_code": "27514", "country": "US", "state": "NC", "display_address": ["1213 Martin Luther King Jr Blvd", "Chapel Hill, NC 27514"]}, "phone": "+19199297855", "display_phone": "(919) 929-7855", "distance": 3847.7826362297833}, {"id": "sSmPTPgVpV735go2nWyDjQ", "alias": "auto-logic-carrboro", "name": "Auto Logic", "image_url": "https://s3-media3.fl.yelpcdn.com/bphoto/QGAICBKqeBO6mMswkC2W-Q/o.jpg", "is_closed": false, "url": "https://www.yelp.com/biz/auto-logic-carrboro?adjust_creative=oqRgleuq4a8yss5LEoEVJg&utm_campaign=yelp_api_v3&utm_medium=api_v3_business_search&utm_source=oqRgleuq4a8yss5LEoEVJg", "review_count": 49, "categories": [{"alias": "autorepair", "title": "Auto Repair"}, {"alias": "tires", "title": "Tires"}, {"alias": "oilchange", "title": "Oil Change Stations"}], "rating": 5.0, "coordinates": {"latitude": 35.9102554321289, "longitude": -79.0749893188477}, "transactions": [], "location": {"address1": "200 W Main St", "address2": null, "address3": "", "city": "Carrboro", "zip_code": "27510", "country": "US", "state": "NC", "display_address": ["200 W Main St", "Carrboro, NC 27510"]}, "phone": "+19199336609", "display_phone": "(919) 933-6609", "distance": 1124.144472856291}, {"id": "HV_V6dpJIorcMQwftmcvog", "alias": "circle-k-chapel-hill", "name": "Circle K", "image_url": "https://s3-media3.fl.yelpcdn.com/bphoto/PNFtgpuyVO0Q6gcxH9rWbw/o.jpg", "is_closed": false, "url": "https://www.yelp.com/biz/circle-k-chapel-hill?adjust_creative=oqRgleuq4a8yss5LEoEVJg&utm_campaign=yelp_api_v3&utm_medium=api_v3_business_search&utm_source=oqRgleuq4a8yss5LEoEVJg", "review_count": 1, "categories": [{"alias": "servicestations", "title": "Gas Stations"}, {"alias": "convenience", "title": "Convenience Stores"}], "rating": 4.0, "coordinates": {"latitude": 35.9099251162911, "longitude": -78.9862584202748}, "transactions": [], "price": "$", "location": {"address1": "2229 W Nc 54 Hwy", "address2": "", "address3": null, "city": "Chapel Hill", "zip_code": "27517", "country": "US", "state": "NC", "display_address": ["2229 W Nc 54 Hwy", "Chapel Hill, NC 27517"]}, "phone": "+19194935088", "display_phone": "(919) 493-5088", "distance": 8705.006397072877}, {"id": "SuuAXhPr3BMv1iL-lplmww", "alias": "meineke-car-care-center-carrboro", "name": "Meineke Car Care Center", "image_url": "https://s3-media2.fl.yelpcdn.com/bphoto/i0rGJHNKb1SjtCQ8A4A2QQ/o.jpg", "is_closed": false, "url": "https://www.yelp.com/biz/meineke-car-care-center-carrboro?adjust_creative=oqRgleuq4a8yss5LEoEVJg&utm_campaign=yelp_api_v3&utm_medium=api_v3_business_search&utm_source=oqRgleuq4a8yss5LEoEVJg", "review_count": 29, "categories": [{"alias": "autorepair", "title": "Auto Repair"}, {"alias": "tires", "title": "Tires"}, {"alias": "oilchange", "title": "Oil Change Stations"}], "rating": 3.0, "coordinates": {"latitude": 35.910488, "longitude": -79.066169}, "transactions": [], "location": {"address1": "407 E Main St", "address2": "", "address3": "", "city": "Carrboro", "zip_code": "27510", "country": "US", "state": "NC", "display_address": ["407 E Main St", "Carrboro, NC 27510"]}, "phone": "+19195903305", "display_phone": "(919) 590-3305", "distance": 1707.8913883618557}, {"id": "hM00kZ65W4u5XqUM-THiZQ", "alias": "eagles-no-2-chapel-hill", "name": "Eagles No 2", "image_url": "https://s3-media1.fl.yelpcdn.com/bphoto/PbxOwynvIFEgm64WCAkTzA/o.jpg", "is_closed": false, "url": "https://www.yelp.com/biz/eagles-no-2-chapel-hill?adjust_creative=oqRgleuq4a8yss5LEoEVJg&utm_campaign=yelp_api_v3&utm_medium=api_v3_business_search&utm_source=oqRgleuq4a8yss5LEoEVJg", "review_count": 2, "categories": [{"alias": "convenience", "title": "Convenience Stores"}], "rating": 3.0, "coordinates": {"latitude": 35.8484121765976, "longitude": -79.0888430240912}, "transactions": [], "location": {"address1": "11620 US 15 501 Hwy N", "address2": null, "address3": null, "city": "Chapel Hill", "zip_code": "27517", "country": "US", "state": "NC", "display_address": ["11620 US 15 501 Hwy N", "Chapel Hill, NC 27517"]}, "phone": "+19199696688", "display_phone": "(919) 969-6688", "distance": 7817.287529055179}, {"id": "JFyYr3hlosQmgGrHTb_46w", "alias": "cruizers-chapel-hill", "name": "Cruizers", "image_url": "", "is_closed": false, "url": "https://www.yelp.com/biz/cruizers-chapel-hill?adjust_creative=oqRgleuq4a8yss5LEoEVJg&utm_campaign=yelp_api_v3&utm_medium=api_v3_business_search&utm_source=oqRgleuq4a8yss5LEoEVJg", "review_count": 2, "categories": [{"alias": "convenience", "title": "Convenience Stores"}, {"alias": "servicestations", "title": "Gas Stations"}, {"alias": "delis", "title": "Delis"}], "rating": 3.0, "coordinates": {"latitude": 35.9082974, "longitude": -79.0260113}, "transactions": [], "location": {"address1": "1010 Raleigh Rd", "address2": null, "address3": "", "city": "Chapel Hill", "zip_code": "27514", "country": "US", "state": "NC", "display_address": ["1010 Raleigh Rd", "Chapel Hill, NC 27514"]}, "phone": "+19199299101", "display_phone": "(919) 929-9101", "distance": 5368.700372373209}], "total": 108, "region": {"center": {"longitude": -79.08233642578125, "latitude": 35.91851687916787}}}